<?xml version="1.0" encoding="utf-8"?>
<kml xmlns="http://earth.google.com/kml/2.2">
  <Document>
    <Placemark>
      <name>TREE</name>
      <description>&lt;div&gt;TREE&lt;/div&gt;&lt;div&gt;Runway: 22/APCH04/TKOF&lt;/div&gt;&lt;div&gt;Elevation (in ft): 400&lt;/div&gt;&lt;div&gt;Marking: NIL&lt;/div&gt;</description>
      <Point>
        <coordinates>94.1064444444444,27.3022222222222</coordinates>
      </Point>
    </Placemark>
    <Placemark>
      <name>Wire fencing-top</name>
      <description>&lt;div&gt;Wire fencing-top&lt;/div&gt;&lt;div&gt;Runway: 22/TKOF04/APCH&lt;/div&gt;&lt;div&gt;Elevation (in ft): 342&lt;/div&gt;&lt;div&gt;Marking: NIL&lt;/div&gt;</description>
      <Point>
        <coordinates>94.0874444444444,27.2873333333333</coordinates>
      </Point>
    </Placemark>
    <Placemark>
      <name>Telephone Pole</name>
      <description>&lt;div&gt;Telephone Pole&lt;/div&gt;&lt;div&gt;Runway: 22/TKOF04/APCH&lt;/div&gt;&lt;div&gt;Elevation (in ft): 344&lt;/div&gt;&lt;div&gt;Marking: NIL&lt;/div&gt;</description>
      <Point>
        <coordinates>94.0870833333333,27.2866944444444</coordinates>
      </Point>
    </Placemark>
    <Placemark>
      <name>Met Observatory Tower</name>
      <description>&lt;div&gt;Met Observatory Tower&lt;/div&gt;&lt;div&gt;Runway: In circling area and at AD&lt;/div&gt;&lt;div&gt;Elevation (in ft): 384&lt;/div&gt;&lt;div&gt;Marking: NIL&lt;/div&gt;</description>
      <Point>
        <coordinates>94.0910277777778,27.2871944444444</coordinates>
      </Point>
    </Placemark>
    <Placemark>
      <name>OHWT</name>
      <description>&lt;div&gt;OHWT&lt;/div&gt;&lt;div&gt;Runway: In circling area and at AD&lt;/div&gt;&lt;div&gt;Elevation (in ft): 378&lt;/div&gt;&lt;div&gt;Marking: NIL&lt;/div&gt;</description>
      <Point>
        <coordinates>94.0901944444444,27.2865</coordinates>
      </Point>
    </Placemark>
    <Placemark>
      <name>Security Hut</name>
      <description>&lt;div&gt;Security Hut&lt;/div&gt;&lt;div&gt;Runway: In circling area and at AD&lt;/div&gt;&lt;div&gt;Elevation (in ft): 341&lt;/div&gt;&lt;div&gt;Marking: NIL&lt;/div&gt;</description>
      <Point>
        <coordinates>94.0888333333333,27.2885833333333</coordinates>
      </Point>
    </Placemark>
    <Placemark>
      <name>Building</name>
      <description>&lt;div&gt;Building&lt;/div&gt;&lt;div&gt;Runway: 22/TKOF04/APCH&lt;/div&gt;&lt;div&gt;Elevation (in ft): 364&lt;/div&gt;&lt;div&gt;Marking: NIL&lt;/div&gt;</description>
      <Point>
        <coordinates>94.0866944444444,27.2845277777778</coordinates>
      </Point>
    </Placemark>
    <Placemark>
      <name>Electric Pole</name>
      <description>&lt;div&gt;Electric Pole&lt;/div&gt;&lt;div&gt;Runway: 22/TKOF04/APCH&lt;/div&gt;&lt;div&gt;Elevation (in ft): 354&lt;/div&gt;&lt;div&gt;Marking: NIL&lt;/div&gt;</description>
      <Point>
        <coordinates>94.0876666666667,27.2851111111111</coordinates>
      </Point>
    </Placemark>
    <Placemark>
      <name>TREE</name>
      <description>&lt;div&gt;TREE&lt;/div&gt;&lt;div&gt;Runway: 22/APCH04/TKOF&lt;/div&gt;&lt;div&gt;Elevation (in ft): 385&lt;/div&gt;&lt;div&gt;Marking: NIL&lt;/div&gt;</description>
      <Point>
        <coordinates>94.0840555555556,27.285</coordinates>
      </Point>
    </Placemark>
    <Placemark>
      <name>Electric Pole</name>
      <description>&lt;div&gt;Electric Pole&lt;/div&gt;&lt;div&gt;Runway: 22/TKOF04/APCH&lt;/div&gt;&lt;div&gt;Elevation (in ft): 358&lt;/div&gt;&lt;div&gt;Marking: NIL&lt;/div&gt;</description>
      <Point>
        <coordinates>94.0870277777778,27.2853055555556</coordinates>
      </Point>
    </Placemark>
    <Placemark>
      <name>Telephone Pole AD 2 VELR-3</name>
      <description>&lt;div&gt;Telephone Pole AD 2 VELR-3&lt;/div&gt;&lt;div&gt;Runway: 22/TKOF04/APCH&lt;/div&gt;&lt;div&gt;Elevation (in ft): 345&lt;/div&gt;&lt;div&gt;Marking: NIL&lt;/div&gt;</description>
      <Point>
        <coordinates>94.0866111111111,27.2856388888889</coordinates>
      </Point>
    </Placemark>
  </Document>
</kml>
