<?xml version="1.0" encoding="utf-8"?>
<kml xmlns="http://earth.google.com/kml/2.2">
  <Document>
    <Placemark>
      <name>STRUCTURE</name>
      <description>&lt;div&gt;STRUCTURE&lt;/div&gt;&lt;div&gt;Runway: 30/TKOF12/APCH&lt;/div&gt;&lt;div&gt;Elevation (in ft): 480&lt;/div&gt;&lt;div&gt;Marking: NIL&lt;/div&gt;</description>
      <Point>
        <coordinates>93.7591388888889,25.8888611111111</coordinates>
      </Point>
    </Placemark>
    <Placemark>
      <name>ELECT POLE</name>
      <description>&lt;div&gt;ELECT POLE&lt;/div&gt;&lt;div&gt;Runway: 30/TKOF12/APCH&lt;/div&gt;&lt;div&gt;Elevation (in ft): 504&lt;/div&gt;&lt;div&gt;Marking: NIL&lt;/div&gt;</description>
      <Point>
        <coordinates>93.7593888888889,25.8907222222222</coordinates>
      </Point>
    </Placemark>
    <Placemark>
      <name>BLDG</name>
      <description>&lt;div&gt;BLDG&lt;/div&gt;&lt;div&gt;Runway: 30/TKOF12/APCH&lt;/div&gt;&lt;div&gt;Elevation (in ft): 498&lt;/div&gt;&lt;div&gt;Marking: NIL&lt;/div&gt;</description>
      <Point>
        <coordinates>93.7587222222222,25.8905</coordinates>
      </Point>
    </Placemark>
    <Placemark>
      <name>BLDG</name>
      <description>&lt;div&gt;BLDG&lt;/div&gt;&lt;div&gt;Runway: 30/TKOF12/APCH&lt;/div&gt;&lt;div&gt;Elevation (in ft): 514&lt;/div&gt;&lt;div&gt;Marking: NIL&lt;/div&gt;</description>
      <Point>
        <coordinates>93.7585833333333,25.8903888888889</coordinates>
      </Point>
    </Placemark>
    <Placemark>
      <name>BDRY. WALL</name>
      <description>&lt;div&gt;BDRY. WALL&lt;/div&gt;&lt;div&gt;Runway: 30/TKOF12/APCH&lt;/div&gt;&lt;div&gt;Elevation (in ft): 488&lt;/div&gt;&lt;div&gt;Marking: NIL&lt;/div&gt;</description>
      <Point>
        <coordinates>93.7583888888889,25.8902222222222</coordinates>
      </Point>
    </Placemark>
    <Placemark>
      <name>HUTS</name>
      <description>&lt;div&gt;HUTS&lt;/div&gt;&lt;div&gt;Runway: 30/TKOF12/APCH&lt;/div&gt;&lt;div&gt;Elevation (in ft): 495&lt;/div&gt;&lt;div&gt;Marking: NIL&lt;/div&gt;</description>
      <Point>
        <coordinates>93.7583611111111,25.8899722222222</coordinates>
      </Point>
    </Placemark>
    <Placemark>
      <name>TELE. POLE</name>
      <description>&lt;div&gt;TELE. POLE&lt;/div&gt;&lt;div&gt;Runway: 30/TKOF12/APCH&lt;/div&gt;&lt;div&gt;Elevation (in ft): 502&lt;/div&gt;&lt;div&gt;Marking: NIL&lt;/div&gt;</description>
      <Point>
        <coordinates>93.7583055555556,25.88975</coordinates>
      </Point>
    </Placemark>
    <Placemark>
      <name>TELE. POLE</name>
      <description>&lt;div&gt;TELE. POLE&lt;/div&gt;&lt;div&gt;Runway: 30/TKOF12/APCH&lt;/div&gt;&lt;div&gt;Elevation (in ft): 503&lt;/div&gt;&lt;div&gt;Marking: NIL&lt;/div&gt;</description>
      <Point>
        <coordinates>93.7580833333333,25.8896944444444</coordinates>
      </Point>
    </Placemark>
    <Placemark>
      <name>SHOPP. CENTRE</name>
      <description>&lt;div&gt;SHOPP. CENTRE&lt;/div&gt;&lt;div&gt;Runway: 30/TKOF12/APCH&lt;/div&gt;&lt;div&gt;Elevation (in ft): 507&lt;/div&gt;&lt;div&gt;Marking: NIL&lt;/div&gt;</description>
      <Point>
        <coordinates>93.75775,25.8896388888889</coordinates>
      </Point>
    </Placemark>
    <Placemark>
      <name>MARUTI WKSP</name>
      <description>&lt;div&gt;MARUTI WKSP&lt;/div&gt;&lt;div&gt;Runway: 30/TKOF12/APCH&lt;/div&gt;&lt;div&gt;Elevation (in ft): 510&lt;/div&gt;&lt;div&gt;Marking: NIL&lt;/div&gt;</description>
      <Point>
        <coordinates>93.7575277777778,25.8899444444444</coordinates>
      </Point>
    </Placemark>
    <Placemark>
      <name>SHOPP. CENTRE</name>
      <description>&lt;div&gt;SHOPP. CENTRE&lt;/div&gt;&lt;div&gt;Runway: 30/TKOF12/APCH&lt;/div&gt;&lt;div&gt;Elevation (in ft): 505&lt;/div&gt;&lt;div&gt;Marking: NIL&lt;/div&gt;</description>
      <Point>
        <coordinates>93.7578333333333,25.8902222222222</coordinates>
      </Point>
    </Placemark>
    <Placemark>
      <name>ELECT POLE</name>
      <description>&lt;div&gt;ELECT POLE&lt;/div&gt;&lt;div&gt;Runway: 30/TKOF12/APCH&lt;/div&gt;&lt;div&gt;Elevation (in ft): 502&lt;/div&gt;&lt;div&gt;Marking: NIL&lt;/div&gt;</description>
      <Point>
        <coordinates>93.7579166666667,25.8902777777778</coordinates>
      </Point>
    </Placemark>
    <Placemark>
      <name>MOB. RD. TFC</name>
      <description>&lt;div&gt;MOB. RD. TFC&lt;/div&gt;&lt;div&gt;Runway: 30/TKOF12/APCH&lt;/div&gt;&lt;div&gt;Elevation (in ft): 497&lt;/div&gt;&lt;div&gt;Marking: NIL&lt;/div&gt;</description>
      <Point>
        <coordinates>93.7580277777778,25.8903888888889</coordinates>
      </Point>
    </Placemark>
    <Placemark>
      <name>ELECT POLE AD 2 VEMR-3</name>
      <description>&lt;div&gt;ELECT POLE AD 2 VEMR-3&lt;/div&gt;&lt;div&gt;Runway: 30/TKOF12/APCH&lt;/div&gt;&lt;div&gt;Elevation (in ft): 505&lt;/div&gt;&lt;div&gt;Marking: NIL&lt;/div&gt;</description>
      <Point>
        <coordinates>93.7583055555556,25.8903611111111</coordinates>
      </Point>
    </Placemark>
    <Placemark>
      <name>ELECT POLE</name>
      <description>&lt;div&gt;ELECT POLE&lt;/div&gt;&lt;div&gt;Runway: 30/TKOF12/APCH&lt;/div&gt;&lt;div&gt;Elevation (in ft): 509&lt;/div&gt;&lt;div&gt;Marking: NIL&lt;/div&gt;</description>
      <Point>
        <coordinates>93.7583333333333,25.8904722222222</coordinates>
      </Point>
    </Placemark>
    <Placemark>
      <name>TREE</name>
      <description>&lt;div&gt;TREE&lt;/div&gt;&lt;div&gt;Runway: 30/TKOF12/APCH&lt;/div&gt;&lt;div&gt;Elevation (in ft): 535&lt;/div&gt;&lt;div&gt;Marking: NIL&lt;/div&gt;</description>
      <Point>
        <coordinates>93.7581111111111,25.8905833333333</coordinates>
      </Point>
    </Placemark>
    <Placemark>
      <name>BLDG</name>
      <description>&lt;div&gt;BLDG&lt;/div&gt;&lt;div&gt;Runway: 30/TKOF12/APCH&lt;/div&gt;&lt;div&gt;Elevation (in ft): 510&lt;/div&gt;&lt;div&gt;Marking: NIL&lt;/div&gt;</description>
      <Point>
        <coordinates>93.7570833333333,25.8908333333333</coordinates>
      </Point>
    </Placemark>
    <Placemark>
      <name>BLDG</name>
      <description>&lt;div&gt;BLDG&lt;/div&gt;&lt;div&gt;Runway: 30/TKOF12/APCH&lt;/div&gt;&lt;div&gt;Elevation (in ft): 513&lt;/div&gt;&lt;div&gt;Marking: NIL&lt;/div&gt;</description>
      <Point>
        <coordinates>93.7571666666667,25.8914722222222</coordinates>
      </Point>
    </Placemark>
    <Placemark>
      <name>BLDG</name>
      <description>&lt;div&gt;BLDG&lt;/div&gt;&lt;div&gt;Runway: 30/TKOF12/APCH&lt;/div&gt;&lt;div&gt;Elevation (in ft): 512&lt;/div&gt;&lt;div&gt;Marking: NIL&lt;/div&gt;</description>
      <Point>
        <coordinates>93.7564444444444,25.8921388888889</coordinates>
      </Point>
    </Placemark>
    <Placemark>
      <name>TREE</name>
      <description>&lt;div&gt;TREE&lt;/div&gt;&lt;div&gt;Runway: 30/TKOF12/APCH&lt;/div&gt;&lt;div&gt;Elevation (in ft): 551&lt;/div&gt;&lt;div&gt;Marking: NIL&lt;/div&gt;</description>
      <Point>
        <coordinates>93.7573055555556,25.8920555555556</coordinates>
      </Point>
    </Placemark>
    <Placemark>
      <name>GP OF TREES</name>
      <description>&lt;div&gt;GP OF TREES&lt;/div&gt;&lt;div&gt;Runway: 30/TKOF12/APCH&lt;/div&gt;&lt;div&gt;Elevation (in ft): 528&lt;/div&gt;&lt;div&gt;Marking: NIL&lt;/div&gt;</description>
      <Point>
        <coordinates>93.75775,25.8910833333333</coordinates>
      </Point>
    </Placemark>
    <Placemark>
      <name>BLDG</name>
      <description>&lt;div&gt;BLDG&lt;/div&gt;&lt;div&gt;Runway: 30/TKOF12/APCH&lt;/div&gt;&lt;div&gt;Elevation (in ft): 511&lt;/div&gt;&lt;div&gt;Marking: NIL&lt;/div&gt;</description>
      <Point>
        <coordinates>93.7558611111111,25.89025</coordinates>
      </Point>
    </Placemark>
    <Placemark>
      <name>MAST</name>
      <description>&lt;div&gt;MAST&lt;/div&gt;&lt;div&gt;Runway: 30/TKOF12/APCH&lt;/div&gt;&lt;div&gt;Elevation (in ft): 573&lt;/div&gt;&lt;div&gt;Marking: NIL&lt;/div&gt;</description>
      <Point>
        <coordinates>93.7505833333333,25.8918055555556</coordinates>
      </Point>
    </Placemark>
    <Placemark>
      <name>MAST</name>
      <description>&lt;div&gt;MAST&lt;/div&gt;&lt;div&gt;Runway: 30/TKOF12/APCH&lt;/div&gt;&lt;div&gt;Elevation (in ft): 568&lt;/div&gt;&lt;div&gt;Marking: NIL&lt;/div&gt;</description>
      <Point>
        <coordinates>93.7503055555556,25.8955277777778</coordinates>
      </Point>
    </Placemark>
    <Placemark>
      <name>MICROWAVE TWR</name>
      <description>&lt;div&gt;MICROWAVE TWR&lt;/div&gt;&lt;div&gt;Runway: 30/TKOF12/APCH&lt;/div&gt;&lt;div&gt;Elevation (in ft): 683&lt;/div&gt;&lt;div&gt;Marking: NIL&lt;/div&gt;</description>
      <Point>
        <coordinates>93.754,25.8884722222222</coordinates>
      </Point>
    </Placemark>
    <Placemark>
      <name>MOB. RD. TFC</name>
      <description>&lt;div&gt;MOB. RD. TFC&lt;/div&gt;&lt;div&gt;Runway: 30/TKOF12/APCH&lt;/div&gt;&lt;div&gt;Elevation (in ft): 496&lt;/div&gt;&lt;div&gt;Marking: NIL&lt;/div&gt;</description>
      <Point>
        <coordinates>93.7585,25.8890555555556</coordinates>
      </Point>
    </Placemark>
    <Placemark>
      <name>ELECT POLE</name>
      <description>&lt;div&gt;ELECT POLE&lt;/div&gt;&lt;div&gt;Runway: 30/TKOF12/APCH&lt;/div&gt;&lt;div&gt;Elevation (in ft): 498&lt;/div&gt;&lt;div&gt;Marking: NIL&lt;/div&gt;</description>
      <Point>
        <coordinates>93.7585833333333,25.8893333333333</coordinates>
      </Point>
    </Placemark>
    <Placemark>
      <name>GP OF TREES</name>
      <description>&lt;div&gt;GP OF TREES&lt;/div&gt;&lt;div&gt;Runway: 30/TKOF12/APCH&lt;/div&gt;&lt;div&gt;Elevation (in ft): 573&lt;/div&gt;&lt;div&gt;Marking: NIL&lt;/div&gt;</description>
      <Point>
        <coordinates>93.7572222222222,25.8912222222222</coordinates>
      </Point>
    </Placemark>
    <Placemark>
      <name>IAC BLDG</name>
      <description>&lt;div&gt;IAC BLDG&lt;/div&gt;&lt;div&gt;Runway: 30/TKOF12/APCH&lt;/div&gt;&lt;div&gt;Elevation (in ft): 484&lt;/div&gt;&lt;div&gt;Marking: NIL&lt;/div&gt;</description>
      <Point>
        <coordinates>93.7530277777778,25.8894166666667</coordinates>
      </Point>
    </Placemark>
  </Document>
</kml>
