<?xml version="1.0" encoding="utf-8"?>
<kml xmlns="http://earth.google.com/kml/2.2">
  <Document>
    <Placemark>
      <name>Mobile Road Traffic</name>
      <description>&lt;div&gt;Mobile Road Traffic&lt;/div&gt;&lt;div&gt;Runway: 24/TKOF06/APCH&lt;/div&gt;&lt;div&gt;Elevation (in ft): 318&lt;/div&gt;&lt;div&gt;Marking: NIL&lt;/div&gt;</description>
      <Point>
        <coordinates>74.8763333333333,12.9475277777778</coordinates>
      </Point>
    </Placemark>
    <Placemark>
      <name>Mobile Road Traffic</name>
      <description>&lt;div&gt;Mobile Road Traffic&lt;/div&gt;&lt;div&gt;Runway: 24/TKOF06/APCH&lt;/div&gt;&lt;div&gt;Elevation (in ft): 322&lt;/div&gt;&lt;div&gt;Marking: NIL&lt;/div&gt;</description>
      <Point>
        <coordinates>74.8757222222222,12.9490833333333</coordinates>
      </Point>
    </Placemark>
    <Placemark>
      <name>Approach Light</name>
      <description>&lt;div&gt;Approach Light&lt;/div&gt;&lt;div&gt;Runway: 24/TKOF06/APCH&lt;/div&gt;&lt;div&gt;Elevation (in ft): 309&lt;/div&gt;&lt;div&gt;Marking: LGTD&lt;/div&gt;</description>
      <Point>
        <coordinates>74.8761388888889,12.9484166666667</coordinates>
      </Point>
    </Placemark>
    <Placemark>
      <name>Group of Trees</name>
      <description>&lt;div&gt;Group of Trees&lt;/div&gt;&lt;div&gt;Runway: 24/APCH06/TKOF&lt;/div&gt;&lt;div&gt;Elevation (in ft): 336&lt;/div&gt;&lt;div&gt;Marking: NIL&lt;/div&gt;</description>
      <Point>
        <coordinates>74.8981111111111,12.96275</coordinates>
      </Point>
    </Placemark>
    <Placemark>
      <name>Tree</name>
      <description>&lt;div&gt;Tree&lt;/div&gt;&lt;div&gt;Runway: In circling area and at AD&lt;/div&gt;&lt;div&gt;Elevation (in ft): 358&lt;/div&gt;&lt;div&gt;Marking: NIL&lt;/div&gt;</description>
      <Point>
        <coordinates>74.8783888888889,12.9516388888889</coordinates>
      </Point>
    </Placemark>
    <Placemark>
      <name>Airport Boundary Wall With Fencing Top</name>
      <description>&lt;div&gt;Airport Boundary Wall With Fencing Top&lt;/div&gt;&lt;div&gt;Runway: In circling area and at AD&lt;/div&gt;&lt;div&gt;Elevation (in ft): 311&lt;/div&gt;&lt;div&gt;Marking: NIL&lt;/div&gt;</description>
      <Point>
        <coordinates>74.8779444444444,12.9484166666667</coordinates>
      </Point>
    </Placemark>
    <Placemark>
      <name>Mobile Road Traffic</name>
      <description>&lt;div&gt;Mobile Road Traffic&lt;/div&gt;&lt;div&gt;Runway: In circling area and at AD&lt;/div&gt;&lt;div&gt;Elevation (in ft): 316&lt;/div&gt;&lt;div&gt;Marking: NIL&lt;/div&gt;</description>
      <Point>
        <coordinates>74.8770833333333,12.9478888888889</coordinates>
      </Point>
    </Placemark>
    <Placemark>
      <name>WDI</name>
      <description>&lt;div&gt;WDI&lt;/div&gt;&lt;div&gt;Runway: In circling area and at AD&lt;/div&gt;&lt;div&gt;Elevation (in ft): 327&lt;/div&gt;&lt;div&gt;Marking: NIL&lt;/div&gt;</description>
      <Point>
        <coordinates>74.8782222222222,12.9488055555556</coordinates>
      </Point>
    </Placemark>
    <Placemark>
      <name>Hut</name>
      <description>&lt;div&gt;Hut&lt;/div&gt;&lt;div&gt;Runway: In circling area and at AD&lt;/div&gt;&lt;div&gt;Elevation (in ft): 321&lt;/div&gt;&lt;div&gt;Marking: NIL&lt;/div&gt;</description>
      <Point>
        <coordinates>74.877,12.9508333333333</coordinates>
      </Point>
    </Placemark>
    <Placemark>
      <name>Mobile Road Traffic</name>
      <description>&lt;div&gt;Mobile Road Traffic&lt;/div&gt;&lt;div&gt;Runway: In circling area and at AD&lt;/div&gt;&lt;div&gt;Elevation (in ft): 309&lt;/div&gt;&lt;div&gt;Marking: NIL&lt;/div&gt;</description>
      <Point>
        <coordinates>74.89675,12.9598055555556</coordinates>
      </Point>
    </Placemark>
    <Placemark>
      <name>Group of Trees</name>
      <description>&lt;div&gt;Group of Trees&lt;/div&gt;&lt;div&gt;Runway: In circling area and at AD&lt;/div&gt;&lt;div&gt;Elevation (in ft): 348&lt;/div&gt;&lt;div&gt;Marking: NIL&lt;/div&gt;</description>
      <Point>
        <coordinates>74.8976666666667,12.9595</coordinates>
      </Point>
    </Placemark>
    <Placemark>
      <name>Group of Trees</name>
      <description>&lt;div&gt;Group of Trees&lt;/div&gt;&lt;div&gt;Runway: In circling area and at AD&lt;/div&gt;&lt;div&gt;Elevation (in ft): 364&lt;/div&gt;&lt;div&gt;Marking: NIL&lt;/div&gt;</description>
      <Point>
        <coordinates>74.8942222222222,12.9579444444444</coordinates>
      </Point>
    </Placemark>
    <Placemark>
      <name>WDI</name>
      <description>&lt;div&gt;WDI&lt;/div&gt;&lt;div&gt;Runway: In circling area and at AD&lt;/div&gt;&lt;div&gt;Elevation (in ft): 330&lt;/div&gt;&lt;div&gt;Marking: LGTD&lt;/div&gt;</description>
      <Point>
        <coordinates>74.8935277777778,12.958</coordinates>
      </Point>
    </Placemark>
    <Placemark>
      <name>Electric Pole</name>
      <description>&lt;div&gt;Electric Pole&lt;/div&gt;&lt;div&gt;Runway: In circling area and at AD&lt;/div&gt;&lt;div&gt;Elevation (in ft): 322&lt;/div&gt;&lt;div&gt;Marking: NIL&lt;/div&gt;</description>
      <Point>
        <coordinates>74.8943055555556,12.95825</coordinates>
      </Point>
    </Placemark>
    <Placemark>
      <name>G.P. Main Antenna</name>
      <description>&lt;div&gt;G.P. Main Antenna&lt;/div&gt;&lt;div&gt;Runway: In circling area and at AD&lt;/div&gt;&lt;div&gt;Elevation (in ft): 357&lt;/div&gt;&lt;div&gt;Marking: LGTD&lt;/div&gt;</description>
      <Point>
        <coordinates>74.893,12.9598055555556</coordinates>
      </Point>
    </Placemark>
    <Placemark>
      <name>G.P. Monitor Antenna</name>
      <description>&lt;div&gt;G.P. Monitor Antenna&lt;/div&gt;&lt;div&gt;Runway: In circling area and at AD&lt;/div&gt;&lt;div&gt;Elevation (in ft): 327&lt;/div&gt;&lt;div&gt;Marking: NIL&lt;/div&gt;</description>
      <Point>
        <coordinates>74.8935833333333,12.9601944444444</coordinates>
      </Point>
    </Placemark>
    <Placemark>
      <name>Group of Trees</name>
      <description>&lt;div&gt;Group of Trees&lt;/div&gt;&lt;div&gt;Runway: In circling area and at AD&lt;/div&gt;&lt;div&gt;Elevation (in ft): 364&lt;/div&gt;&lt;div&gt;Marking: NIL&lt;/div&gt;</description>
      <Point>
        <coordinates>74.8951111111111,12.95825</coordinates>
      </Point>
    </Placemark>
    <Placemark>
      <name>ATC Tower Antenna Top</name>
      <description>&lt;div&gt;ATC Tower Antenna Top&lt;/div&gt;&lt;div&gt;Runway: In circling area and at AD&lt;/div&gt;&lt;div&gt;Elevation (in ft): 375&lt;/div&gt;&lt;div&gt;Marking: NIL&lt;/div&gt;</description>
      <Point>
        <coordinates>74.8917222222222,12.9599444444444</coordinates>
      </Point>
    </Placemark>
    <Placemark>
      <name>Mobile Road Traffic</name>
      <description>&lt;div&gt;Mobile Road Traffic&lt;/div&gt;&lt;div&gt;Runway: In circling area and at AD&lt;/div&gt;&lt;div&gt;Elevation (in ft): 335&lt;/div&gt;&lt;div&gt;Marking: NIL&lt;/div&gt;</description>
      <Point>
        <coordinates>74.8828333333333,12.9609722222222</coordinates>
      </Point>
    </Placemark>
    <Placemark>
      <name>OHWT</name>
      <description>&lt;div&gt;OHWT&lt;/div&gt;&lt;div&gt;Runway: In circling area and at AD&lt;/div&gt;&lt;div&gt;Elevation (in ft): 494&lt;/div&gt;&lt;div&gt;Marking: NIL&lt;/div&gt;</description>
      <Point>
        <coordinates>74.9303611111111,12.9732222222222</coordinates>
      </Point>
    </Placemark>
    <Placemark>
      <name>Tree</name>
      <description>&lt;div&gt;Tree&lt;/div&gt;&lt;div&gt;Runway: In circling area and at AD&lt;/div&gt;&lt;div&gt;Elevation (in ft): 462&lt;/div&gt;&lt;div&gt;Marking: NIL&lt;/div&gt;</description>
      <Point>
        <coordinates>74.9323333333333,12.9495277777778</coordinates>
      </Point>
    </Placemark>
    <Placemark>
      <name>Tree</name>
      <description>&lt;div&gt;Tree&lt;/div&gt;&lt;div&gt;Runway: In circling area and at AD&lt;/div&gt;&lt;div&gt;Elevation (in ft): 329&lt;/div&gt;&lt;div&gt;Marking: NIL&lt;/div&gt;</description>
      <Point>
        <coordinates>74.8987222222222,12.9625555555556</coordinates>
      </Point>
    </Placemark>
    <Placemark>
      <name>AAI Boundary Wall With Fencing Top</name>
      <description>&lt;div&gt;AAI Boundary Wall With Fencing Top&lt;/div&gt;&lt;div&gt;Runway: In circling area and at AD&lt;/div&gt;&lt;div&gt;Elevation (in ft): 303&lt;/div&gt;&lt;div&gt;Marking: NIL&lt;/div&gt;</description>
      <Point>
        <coordinates>74.8985555555556,12.9610555555556</coordinates>
      </Point>
    </Placemark>
    <Placemark>
      <name>Approach Light</name>
      <description>&lt;div&gt;Approach Light&lt;/div&gt;&lt;div&gt;Runway: In circling area and at AD&lt;/div&gt;&lt;div&gt;Elevation (in ft): 298&lt;/div&gt;&lt;div&gt;Marking: LGTD&lt;/div&gt;</description>
      <Point>
        <coordinates>74.89775,12.9613611111111</coordinates>
      </Point>
    </Placemark>
    <Placemark>
      <name>Approach Light</name>
      <description>&lt;div&gt;Approach Light&lt;/div&gt;&lt;div&gt;Runway: In circling area and at AD&lt;/div&gt;&lt;div&gt;Elevation (in ft): 302&lt;/div&gt;&lt;div&gt;Marking: LGTD&lt;/div&gt;</description>
      <Point>
        <coordinates>74.8972777777778,12.9610833333333</coordinates>
      </Point>
    </Placemark>
    <Placemark>
      <name>Approach Light AD 2 VOML-5</name>
      <description>&lt;div&gt;Approach Light AD 2 VOML-5&lt;/div&gt;&lt;div&gt;Runway: In circling area and at AD&lt;/div&gt;&lt;div&gt;Elevation (in ft): 305&lt;/div&gt;&lt;div&gt;Marking: LGTD&lt;/div&gt;</description>
      <Point>
        <coordinates>74.89675,12.9607777777778</coordinates>
      </Point>
    </Placemark>
    <Placemark>
      <name>Approach Light</name>
      <description>&lt;div&gt;Approach Light&lt;/div&gt;&lt;div&gt;Runway: In circling area and at AD&lt;/div&gt;&lt;div&gt;Elevation (in ft): 308&lt;/div&gt;&lt;div&gt;Marking: LGTD&lt;/div&gt;</description>
      <Point>
        <coordinates>74.8963611111111,12.9605277777778</coordinates>
      </Point>
    </Placemark>
    <Placemark>
      <name>Aerodrome Beacon</name>
      <description>&lt;div&gt;Aerodrome Beacon&lt;/div&gt;&lt;div&gt;Runway: In circling area and at AD&lt;/div&gt;&lt;div&gt;Elevation (in ft): 378&lt;/div&gt;&lt;div&gt;Marking: LGTD&lt;/div&gt;</description>
      <Point>
        <coordinates>74.8904166666667,12.9633333333333</coordinates>
      </Point>
    </Placemark>
    <Placemark>
      <name>Group of Trees</name>
      <description>&lt;div&gt;Group of Trees&lt;/div&gt;&lt;div&gt;Runway: In circling area and at AD&lt;/div&gt;&lt;div&gt;Elevation (in ft): 388&lt;/div&gt;&lt;div&gt;Marking: NIL&lt;/div&gt;</description>
      <Point>
        <coordinates>74.88775,12.9604722222222</coordinates>
      </Point>
    </Placemark>
    <Placemark>
      <name>Highest Antenna On Towers (Old)</name>
      <description>&lt;div&gt;Highest Antenna On Towers (Old)&lt;/div&gt;&lt;div&gt;Runway: In circling area and at AD&lt;/div&gt;&lt;div&gt;Elevation (in ft): 394&lt;/div&gt;&lt;div&gt;Marking: NIL&lt;/div&gt;</description>
      <Point>
        <coordinates>74.8903611111111,12.96325</coordinates>
      </Point>
    </Placemark>
    <Placemark>
      <name>LLZ Hut</name>
      <description>&lt;div&gt;LLZ Hut&lt;/div&gt;&lt;div&gt;Runway: In circling area and at AD&lt;/div&gt;&lt;div&gt;Elevation (in ft): 330&lt;/div&gt;&lt;div&gt;Marking: LGTD&lt;/div&gt;</description>
      <Point>
        <coordinates>74.8858611111111,12.9628333333333</coordinates>
      </Point>
    </Placemark>
    <Placemark>
      <name>Smoke Chamber</name>
      <description>&lt;div&gt;Smoke Chamber&lt;/div&gt;&lt;div&gt;Runway: In circling area and at AD&lt;/div&gt;&lt;div&gt;Elevation (in ft): 343&lt;/div&gt;&lt;div&gt;Marking: NIL&lt;/div&gt;</description>
      <Point>
        <coordinates>74.8880833333333,12.9629722222222</coordinates>
      </Point>
    </Placemark>
    <Placemark>
      <name>Fire Tower Old</name>
      <description>&lt;div&gt;Fire Tower Old&lt;/div&gt;&lt;div&gt;Runway: In circling area and at AD&lt;/div&gt;&lt;div&gt;Elevation (in ft): 357&lt;/div&gt;&lt;div&gt;Marking: NIL&lt;/div&gt;</description>
      <Point>
        <coordinates>74.8888888888889,12.96325</coordinates>
      </Point>
    </Placemark>
    <Placemark>
      <name>Terminal Building</name>
      <description>&lt;div&gt;Terminal Building&lt;/div&gt;&lt;div&gt;Runway: In circling area and at AD&lt;/div&gt;&lt;div&gt;Elevation (in ft): 360&lt;/div&gt;&lt;div&gt;Marking: NIL&lt;/div&gt;</description>
      <Point>
        <coordinates>74.8895555555556,12.9631111111111</coordinates>
      </Point>
    </Placemark>
    <Placemark>
      <name>Chimney (Power House)</name>
      <description>&lt;div&gt;Chimney (Power House)&lt;/div&gt;&lt;div&gt;Runway: In circling area and at AD&lt;/div&gt;&lt;div&gt;Elevation (in ft): 357&lt;/div&gt;&lt;div&gt;Marking: NIL&lt;/div&gt;</description>
      <Point>
        <coordinates>74.8911388888889,12.9634166666667</coordinates>
      </Point>
    </Placemark>
    <Placemark>
      <name>Building</name>
      <description>&lt;div&gt;Building&lt;/div&gt;&lt;div&gt;Runway: In circling area and at AD&lt;/div&gt;&lt;div&gt;Elevation (in ft): 352&lt;/div&gt;&lt;div&gt;Marking: NIL&lt;/div&gt;</description>
      <Point>
        <coordinates>74.8911666666667,12.9632777777778</coordinates>
      </Point>
    </Placemark>
    <Placemark>
      <name>WDI</name>
      <description>&lt;div&gt;WDI&lt;/div&gt;&lt;div&gt;Runway: In circling area and at AD&lt;/div&gt;&lt;div&gt;Elevation (in ft): 356&lt;/div&gt;&lt;div&gt;Marking: NIL&lt;/div&gt;</description>
      <Point>
        <coordinates>74.8910555555556,12.9611388888889</coordinates>
      </Point>
    </Placemark>
    <Placemark>
      <name>Self Radiating Mast</name>
      <description>&lt;div&gt;Self Radiating Mast&lt;/div&gt;&lt;div&gt;Runway: In circling area and at AD&lt;/div&gt;&lt;div&gt;Elevation (in ft): 375&lt;/div&gt;&lt;div&gt;Marking: NIL&lt;/div&gt;</description>
      <Point>
        <coordinates>74.8919722222222,12.9632222222222</coordinates>
      </Point>
    </Placemark>
    <Placemark>
      <name>NDB Hut</name>
      <description>&lt;div&gt;NDB Hut&lt;/div&gt;&lt;div&gt;Runway: In circling area and at AD&lt;/div&gt;&lt;div&gt;Elevation (in ft): 342&lt;/div&gt;&lt;div&gt;Marking: NIL&lt;/div&gt;</description>
      <Point>
        <coordinates>74.8919444444444,12.9629722222222</coordinates>
      </Point>
    </Placemark>
    <Placemark>
      <name>NDB Pole</name>
      <description>&lt;div&gt;NDB Pole&lt;/div&gt;&lt;div&gt;Runway: In circling area and at AD&lt;/div&gt;&lt;div&gt;Elevation (in ft): 368&lt;/div&gt;&lt;div&gt;Marking: LGTD&lt;/div&gt;</description>
      <Point>
        <coordinates>74.8921388888889,12.96325</coordinates>
      </Point>
    </Placemark>
    <Placemark>
      <name>G.P. Hut Top</name>
      <description>&lt;div&gt;G.P. Hut Top&lt;/div&gt;&lt;div&gt;Runway: In circling area and at AD&lt;/div&gt;&lt;div&gt;Elevation (in ft): 329&lt;/div&gt;&lt;div&gt;Marking: LGTD&lt;/div&gt;</description>
      <Point>
        <coordinates>74.8928611111111,12.95975</coordinates>
      </Point>
    </Placemark>
    <Placemark>
      <name>G.P. DME Antenna</name>
      <description>&lt;div&gt;G.P. DME Antenna&lt;/div&gt;&lt;div&gt;Runway: In circling area and at AD&lt;/div&gt;&lt;div&gt;Elevation (in ft): 331&lt;/div&gt;&lt;div&gt;Marking: NIL&lt;/div&gt;</description>
      <Point>
        <coordinates>74.8929166666667,12.9598333333333</coordinates>
      </Point>
    </Placemark>
    <Placemark>
      <name>NCC Hangar (Abandoned)</name>
      <description>&lt;div&gt;NCC Hangar (Abandoned)&lt;/div&gt;&lt;div&gt;Runway: In circling area and at AD&lt;/div&gt;&lt;div&gt;Elevation (in ft): 336&lt;/div&gt;&lt;div&gt;Marking: NIL&lt;/div&gt;</description>
      <Point>
        <coordinates>74.894,12.9634444444444</coordinates>
      </Point>
    </Placemark>
    <Placemark>
      <name>Building (Madarsa)</name>
      <description>&lt;div&gt;Building (Madarsa)&lt;/div&gt;&lt;div&gt;Runway: In circling area and at AD&lt;/div&gt;&lt;div&gt;Elevation (in ft): 335&lt;/div&gt;&lt;div&gt;Marking: NIL&lt;/div&gt;</description>
      <Point>
        <coordinates>74.8865,12.9535</coordinates>
      </Point>
    </Placemark>
    <Placemark>
      <name>Group of Trees</name>
      <description>&lt;div&gt;Group of Trees&lt;/div&gt;&lt;div&gt;Runway: In circling area and at AD&lt;/div&gt;&lt;div&gt;Elevation (in ft): 386&lt;/div&gt;&lt;div&gt;Marking: NIL&lt;/div&gt;</description>
      <Point>
        <coordinates>74.8914444444444,12.9563333333333</coordinates>
      </Point>
    </Placemark>
    <Placemark>
      <name>Group Of Trees</name>
      <description>&lt;div&gt;Group Of Trees&lt;/div&gt;&lt;div&gt;Runway: In circling area and at AD&lt;/div&gt;&lt;div&gt;Elevation (in ft): 378&lt;/div&gt;&lt;div&gt;Marking: NIL&lt;/div&gt;</description>
      <Point>
        <coordinates>74.8875,12.9575277777778</coordinates>
      </Point>
    </Placemark>
    <Placemark>
      <name>Ground Elevation</name>
      <description>&lt;div&gt;Ground Elevation&lt;/div&gt;&lt;div&gt;Runway: In circling area and at AD&lt;/div&gt;&lt;div&gt;Elevation (in ft): 307&lt;/div&gt;&lt;div&gt;Marking: NIL&lt;/div&gt;</description>
      <Point>
        <coordinates>74.8771944444444,12.9505555555556</coordinates>
      </Point>
    </Placemark>
    <Placemark>
      <name>Ground Elevation</name>
      <description>&lt;div&gt;Ground Elevation&lt;/div&gt;&lt;div&gt;Runway: In circling area and at AD&lt;/div&gt;&lt;div&gt;Elevation (in ft): 311&lt;/div&gt;&lt;div&gt;Marking: NIL&lt;/div&gt;</description>
      <Point>
        <coordinates>74.8777777777778,12.9506388888889</coordinates>
      </Point>
    </Placemark>
    <Placemark>
      <name>Electric Pole</name>
      <description>&lt;div&gt;Electric Pole&lt;/div&gt;&lt;div&gt;Runway: In circling area and at AD&lt;/div&gt;&lt;div&gt;Elevation (in ft): 329&lt;/div&gt;&lt;div&gt;Marking: NIL&lt;/div&gt;</description>
      <Point>
        <coordinates>74.89,12.9555</coordinates>
      </Point>
    </Placemark>
    <Placemark>
      <name>Hut</name>
      <description>&lt;div&gt;Hut&lt;/div&gt;&lt;div&gt;Runway: In circling area and at AD&lt;/div&gt;&lt;div&gt;Elevation (in ft): 340&lt;/div&gt;&lt;div&gt;Marking: NIL&lt;/div&gt;</description>
      <Point>
        <coordinates>74.8861666666667,12.9609166666667</coordinates>
      </Point>
    </Placemark>
    <Placemark>
      <name>Hut</name>
      <description>&lt;div&gt;Hut&lt;/div&gt;&lt;div&gt;Runway: In circling area and at AD&lt;/div&gt;&lt;div&gt;Elevation (in ft): 316&lt;/div&gt;&lt;div&gt;Marking: NIL&lt;/div&gt;</description>
      <Point>
        <coordinates>74.8877222222222,12.9565277777778</coordinates>
      </Point>
    </Placemark>
    <Placemark>
      <name>Fire Station Tower</name>
      <description>&lt;div&gt;Fire Station Tower&lt;/div&gt;&lt;div&gt;Runway: In circling area and at AD&lt;/div&gt;&lt;div&gt;Elevation (in ft): 399&lt;/div&gt;&lt;div&gt;Marking: NIL&lt;/div&gt;</description>
      <Point>
        <coordinates>74.8882222222222,12.9590277777778</coordinates>
      </Point>
    </Placemark>
    <Placemark>
      <name>Flood Light Mast</name>
      <description>&lt;div&gt;Flood Light Mast&lt;/div&gt;&lt;div&gt;Runway: In circling area and at AD&lt;/div&gt;&lt;div&gt;Elevation (in ft): 373&lt;/div&gt;&lt;div&gt;Marking: NIL&lt;/div&gt;</description>
      <Point>
        <coordinates>74.8899722222222,12.9631111111111</coordinates>
      </Point>
    </Placemark>
    <Placemark>
      <name>Flood Light Mast</name>
      <description>&lt;div&gt;Flood Light Mast&lt;/div&gt;&lt;div&gt;Runway: In circling area and at AD&lt;/div&gt;&lt;div&gt;Elevation (in ft): 375&lt;/div&gt;&lt;div&gt;Marking: NIL&lt;/div&gt;</description>
      <Point>
        <coordinates>74.8905833333333,12.9631944444444</coordinates>
      </Point>
    </Placemark>
    <Placemark>
      <name>Flood Light Mast</name>
      <description>&lt;div&gt;Flood Light Mast&lt;/div&gt;&lt;div&gt;Runway: In circling area and at AD&lt;/div&gt;&lt;div&gt;Elevation (in ft): 375&lt;/div&gt;&lt;div&gt;Marking: NIL&lt;/div&gt;</description>
      <Point>
        <coordinates>74.8910833333333,12.9631944444444</coordinates>
      </Point>
    </Placemark>
    <Placemark>
      <name>TV Tower</name>
      <description>&lt;div&gt;TV Tower&lt;/div&gt;&lt;div&gt;Runway: In circling area and at AD&lt;/div&gt;&lt;div&gt;Elevation (in ft): 574&lt;/div&gt;&lt;div&gt;Marking: NIL&lt;/div&gt;</description>
      <Point>
        <coordinates>74.9006944444445,12.9236111111111</coordinates>
      </Point>
    </Placemark>
    <Placemark>
      <name>Cell Phone Mast</name>
      <description>&lt;div&gt;Cell Phone Mast&lt;/div&gt;&lt;div&gt;Runway: In circling area and at AD&lt;/div&gt;&lt;div&gt;Elevation (in ft): 499&lt;/div&gt;&lt;div&gt;Marking: NIL&lt;/div&gt;</description>
      <Point>
        <coordinates>74.9044722222222,12.9844444444444</coordinates>
      </Point>
    </Placemark>
    <Placemark>
      <name>Cell Phone Mast</name>
      <description>&lt;div&gt;Cell Phone Mast&lt;/div&gt;&lt;div&gt;Runway: In circling area and at AD&lt;/div&gt;&lt;div&gt;Elevation (in ft): 499&lt;/div&gt;&lt;div&gt;Marking: NIL&lt;/div&gt;</description>
      <Point>
        <coordinates>74.8935833333333,12.9268055555556</coordinates>
      </Point>
    </Placemark>
  </Document>
</kml>
