<?xml version="1.0" encoding="utf-8"?>
<kml xmlns="http://earth.google.com/kml/2.2">
  <Document>
    <Placemark>
      <name>LOC BLDG.</name>
      <description>&lt;div&gt;LOC BLDG.&lt;/div&gt;&lt;div&gt;Runway: 27/TKOF09/APCH&lt;/div&gt;&lt;div&gt;Elevation (in ft): 299&lt;/div&gt;&lt;div&gt;Marking: NIL&lt;/div&gt;</description>
      <Point>
        <coordinates>78.7050277777778,10.7648333333333</coordinates>
      </Point>
    </Placemark>
    <Placemark>
      <name>BOUND. WALL</name>
      <description>&lt;div&gt;BOUND. WALL&lt;/div&gt;&lt;div&gt;Runway: 27/TKOF09/APCH&lt;/div&gt;&lt;div&gt;Elevation (in ft): 295&lt;/div&gt;&lt;div&gt;Marking: NIL&lt;/div&gt;</description>
      <Point>
        <coordinates>78.7048333333333,10.7655277777778</coordinates>
      </Point>
    </Placemark>
    <Placemark>
      <name>BOUND. WALL</name>
      <description>&lt;div&gt;BOUND. WALL&lt;/div&gt;&lt;div&gt;Runway: 27/APCH09/TKOF&lt;/div&gt;&lt;div&gt;Elevation (in ft): 280&lt;/div&gt;&lt;div&gt;Marking: NIL&lt;/div&gt;</description>
      <Point>
        <coordinates>78.7235555555556,10.7654166666667</coordinates>
      </Point>
    </Placemark>
    <Placemark>
      <name>HOUSE AD 2 VOTR-3</name>
      <description>&lt;div&gt;HOUSE AD 2 VOTR-3&lt;/div&gt;&lt;div&gt;Runway: 27/TKOF09/APCH&lt;/div&gt;&lt;div&gt;Elevation (in ft): 300&lt;/div&gt;&lt;div&gt;Marking: NIL&lt;/div&gt;</description>
      <Point>
        <coordinates>78.7048055555556,10.7640833333333</coordinates>
      </Point>
    </Placemark>
    <Placemark>
      <name>MOB. RD. TFC</name>
      <description>&lt;div&gt;MOB. RD. TFC&lt;/div&gt;&lt;div&gt;Runway: 27/TKOF09/APCH&lt;/div&gt;&lt;div&gt;Elevation (in ft): 301&lt;/div&gt;&lt;div&gt;Marking: NIL&lt;/div&gt;</description>
      <Point>
        <coordinates>78.7051111111111,10.7640555555556</coordinates>
      </Point>
    </Placemark>
    <Placemark>
      <name>POLE</name>
      <description>&lt;div&gt;POLE&lt;/div&gt;&lt;div&gt;Runway: 27/TKOF09/APCH&lt;/div&gt;&lt;div&gt;Elevation (in ft): 307&lt;/div&gt;&lt;div&gt;Marking: NIL&lt;/div&gt;</description>
      <Point>
        <coordinates>78.7050277777778,10.7639722222222</coordinates>
      </Point>
    </Placemark>
    <Placemark>
      <name>SEC. HUT</name>
      <description>&lt;div&gt;SEC. HUT&lt;/div&gt;&lt;div&gt;Runway: 27/APCH09/TKOF&lt;/div&gt;&lt;div&gt;Elevation (in ft): 282&lt;/div&gt;&lt;div&gt;Marking: NIL&lt;/div&gt;</description>
      <Point>
        <coordinates>78.7231666666667,10.7675</coordinates>
      </Point>
    </Placemark>
    <Placemark>
      <name>HOARDING</name>
      <description>&lt;div&gt;HOARDING&lt;/div&gt;&lt;div&gt;Runway: 27/TKOF09/APCH&lt;/div&gt;&lt;div&gt;Elevation (in ft): 299&lt;/div&gt;&lt;div&gt;Marking: NIL&lt;/div&gt;</description>
      <Point>
        <coordinates>78.7042222222222,10.7660833333333</coordinates>
      </Point>
    </Placemark>
    <Placemark>
      <name>ELECT. POLE</name>
      <description>&lt;div&gt;ELECT. POLE&lt;/div&gt;&lt;div&gt;Runway: 27/TKOF09/APCH&lt;/div&gt;&lt;div&gt;Elevation (in ft): 323&lt;/div&gt;&lt;div&gt;Marking: NIL&lt;/div&gt;</description>
      <Point>
        <coordinates>78.7042777777778,10.7665833333333</coordinates>
      </Point>
    </Placemark>
    <Placemark>
      <name>TREE</name>
      <description>&lt;div&gt;TREE&lt;/div&gt;&lt;div&gt;Runway: 27/TKOF09/APCH&lt;/div&gt;&lt;div&gt;Elevation (in ft): 330&lt;/div&gt;&lt;div&gt;Marking: NIL&lt;/div&gt;</description>
      <Point>
        <coordinates>78.7042222222222,10.7666388888889</coordinates>
      </Point>
    </Placemark>
    <Placemark>
      <name>ELECT. POLE</name>
      <description>&lt;div&gt;ELECT. POLE&lt;/div&gt;&lt;div&gt;Runway: 27/TKOF09/APCH&lt;/div&gt;&lt;div&gt;Elevation (in ft): 304&lt;/div&gt;&lt;div&gt;Marking: NIL&lt;/div&gt;</description>
      <Point>
        <coordinates>78.7037222222222,10.7665555555556</coordinates>
      </Point>
    </Placemark>
    <Placemark>
      <name>LOC ANTENNA</name>
      <description>&lt;div&gt;LOC ANTENNA&lt;/div&gt;&lt;div&gt;Runway: 27/TKOF09/APCH&lt;/div&gt;&lt;div&gt;Elevation (in ft): 297&lt;/div&gt;&lt;div&gt;Marking: NIL&lt;/div&gt;</description>
      <Point>
        <coordinates>78.7049722222222,10.7654166666667</coordinates>
      </Point>
    </Placemark>
    <Placemark>
      <name>HOARDING</name>
      <description>&lt;div&gt;HOARDING&lt;/div&gt;&lt;div&gt;Runway: 27/TKOF09/APCH&lt;/div&gt;&lt;div&gt;Elevation (in ft): 308&lt;/div&gt;&lt;div&gt;Marking: NIL&lt;/div&gt;</description>
      <Point>
        <coordinates>78.7048611111111,10.7638611111111</coordinates>
      </Point>
    </Placemark>
    <Placemark>
      <name>TREE</name>
      <description>&lt;div&gt;TREE&lt;/div&gt;&lt;div&gt;Runway: 27/TKOF09/APCH&lt;/div&gt;&lt;div&gt;Elevation (in ft): 322&lt;/div&gt;&lt;div&gt;Marking: NIL&lt;/div&gt;</description>
      <Point>
        <coordinates>78.7022222222222,10.76625</coordinates>
      </Point>
    </Placemark>
    <Placemark>
      <name>ELECT. POLE</name>
      <description>&lt;div&gt;ELECT. POLE&lt;/div&gt;&lt;div&gt;Runway: 27/TKOF09/APCH&lt;/div&gt;&lt;div&gt;Elevation (in ft): 308&lt;/div&gt;&lt;div&gt;Marking: NIL&lt;/div&gt;</description>
      <Point>
        <coordinates>78.7042222222222,10.7664166666667</coordinates>
      </Point>
    </Placemark>
    <Placemark>
      <name>TREE</name>
      <description>&lt;div&gt;TREE&lt;/div&gt;&lt;div&gt;Runway: 27/APCH09/TKOF&lt;/div&gt;&lt;div&gt;Elevation (in ft): 307&lt;/div&gt;&lt;div&gt;Marking: NIL&lt;/div&gt;</description>
      <Point>
        <coordinates>78.7235555555556,10.7675555555556</coordinates>
      </Point>
    </Placemark>
    <Placemark>
      <name>HOARDING</name>
      <description>&lt;div&gt;HOARDING&lt;/div&gt;&lt;div&gt;Runway: 27/TKOF09/APCH&lt;/div&gt;&lt;div&gt;Elevation (in ft): 306&lt;/div&gt;&lt;div&gt;Marking: NIL&lt;/div&gt;</description>
      <Point>
        <coordinates>78.7050277777778,10.7641666666667</coordinates>
      </Point>
    </Placemark>
    <Placemark>
      <name>TREE</name>
      <description>&lt;div&gt;TREE&lt;/div&gt;&lt;div&gt;Runway: 27/APCH09/TKOF&lt;/div&gt;&lt;div&gt;Elevation (in ft): 317&lt;/div&gt;&lt;div&gt;Marking: NIL&lt;/div&gt;</description>
      <Point>
        <coordinates>78.7288888888889,10.75175</coordinates>
      </Point>
    </Placemark>
  </Document>
</kml>
